{"type":"FeatureCollection","features":[{"type":"Feature","properties":{"marker-color":"#7e7e7e","marker-size":"medium","marker-symbol":"","Name":"New York City","Top":"A$ap Rocky"},"geometry":{"type":"Point","coordinates":[-73.99566650390625,40.74205475883487]}},{"type":"Feature","properties":{"marker-color":"#7e7e7e","marker-size":"medium","marker-symbol":"","Name":"Los Angeles Area","Top":"Kendrick Lamar"},"geometry":{"type":"Point","coordinates":[-118.25271606445312,34.05322832125499]}},{"type":"Feature","properties":{"marker-color":"#7e7e7e","marker-size":"medium","marker-symbol":"","Name":"Atlanta","Top":"Playboi Carti"},"geometry":{"type":"Point","coordinates":[-84.39147949218749,33.754031498216385]}},{"type":"Feature","properties":{"marker-color":"#7e7e7e","marker-size":"medium","marker-symbol":"","Name":"New Orleans","Top":"Lil Wayne"},"geometry":{"type":"Point","coordinates":[-90.09269714355469,29.95374469792335]}},{"type":"Feature","properties":{"marker-color":"#7e7e7e","marker-size":"medium","marker-symbol":"","Name":"Detroit","Top":"Danny Brown"},"geometry":{"type":"Point","coordinates":[-83.0621337890625,42.35194747639862]}},{"type":"Feature","properties":{"marker-color":"#7e7e7e","marker-size":"medium","marker-symbol":"","Name":"Chicago","Top":"Chief Keef"},"geometry":{"type":"Point","coordinates":[-87.63931274414062,41.87671893034394]}},{"type":"Feature","properties":{"marker-color":"#7e7e7e","marker-size":"medium","marker-symbol":"","Name":"Houston","Top":"Travis Scott"},"geometry":{"type":"Point","coordinates":[-95.36956787109375,29.771529831403097]}},{"type":"Feature","properties":{"marker-color":"#7e7e7e","marker-size":"medium","marker-symbol":"","Name":"Miami","Top":"XXXTentacion"},"geometry":{"type":"Point","coordinates":[-80.20980834960938,25.781343719101066]}},{"type":"Feature","properties":{"marker-color":"#7e7e7e","marker-size":"medium","marker-symbol":"","Name":"Memphis","Top":"Three 6 Mafia"},"geometry":{"type":"Point","coordinates":[-90.05218505859375,35.150793001813]}},{"type":"Feature","properties":{"marker-color":"#7e7e7e","marker-size":"medium","marker-symbol":"","Name":"Virginia Beach","Top":"Pusha T"},"geometry":{"type":"Point","coordinates":[-76.00341796875,36.85435108768685]}},{"type":"Feature","properties":{"marker-color":"#7e7e7e","marker-size":"medium","marker-symbol":"","Name":"SF/Oakland","Top":"SOB x RBE"},"geometry":{"type":"Point","coordinates":[-122.27748870849608,37.808698976006795]}},{"type":"Feature","properties":{"marker-color":"#7e7e7e","marker-size":"medium","marker-symbol":"","Name":"Philadelphia","Top":"Lil Uzi Vert"},"geometry":{"type":"Point","coordinates":[-75.16571044921875,39.953964380766394]}}]}